{
"type": "FeatureCollection",
"crs": { "type": "name", "properties": { "name": "urn:ogc:def:crs:OGC:1.3:CRS84" } },
                                                                                
"features": [
{ "type": "Feature", "properties": { "OBJECTID": 1, "TIPO": "CATE", "COORD_X": 832980.914900, "COORD_Y": 1184684.442000, "NOMBRE": "La Iguaná" }, "geometry": { "type": "Point", "coordinates": [ -75.58655, 6.264173 ] } },
{ "type": "Feature", "properties": { "OBJECTID": 2, "TIPO": "CATE", "COORD_X": 836739.723500, "COORD_Y": 1183161.619700, "NOMBRE": "La Ladera" }, "geometry": { "type": "Point", "coordinates": [ -75.55259, 6.250406 ] } },
{ "type": "Feature", "properties": { "OBJECTID": 3, "TIPO": "CATE", "COORD_X": 831033.663900, "COORD_Y": 1183910.288700, "NOMBRE": "Santa Lucía" }, "geometry": { "type": "Point", "coordinates": [ -75.604142, 6.257173 ] } },
{ "type": "Feature", "properties": { "OBJECTID": 4, "TIPO": "Centro de Acopio", "COORD_X": 835154.714400, "COORD_Y": 1183896.666500, "NOMBRE": "Bazar de los Puentes" }, "geometry": { "type": "Point", "coordinates": [ -75.56691, 6.257052 ] } },
{ "type": "Feature", "properties": { "OBJECTID": 5, "TIPO": "Centro de Acopio", "COORD_X": 834500.973100, "COORD_Y": 1180495.321500, "NOMBRE": "Barrio Colombia" }, "geometry": { "type": "Point", "coordinates": [ -75.572816, 6.226302 ] } },
{ "type": "Feature", "properties": { "OBJECTID": 6, "TIPO": "Centro de Acopio", "COORD_X": 842597.920000, "COORD_Y": 1183344.627200, "NOMBRE": "Corporación Parque Arví y Santa Elena" }, "geometry": { "type": "Point", "coordinates": [ -75.499665, 6.252057 ] } },
{ "type": "Feature", "properties": { "OBJECTID": 7, "TIPO": "Centro de Acopio", "COORD_X": 824725.097600, "COORD_Y": 1174726.972300, "NOMBRE": "La Florida en San Antonio de Prado" }, "geometry": { "type": "Point", "coordinates": [ -75.661121, 6.174144 ] } },
{ "type": "Feature", "properties": { "OBJECTID": 8, "TIPO": "Centro de Acopio", "COORD_X": 821752.259400, "COORD_Y": 1193397.487200, "NOMBRE": "Corregimiento de San Sebastián de Palmitas" }, "geometry": { "type": "Point", "coordinates": [ -75.688015, 6.342929 ] } },
{ "type": "Feature", "properties": { "OBJECTID": 9, "TIPO": "Centro de Acopio", "COORD_X": 826861.476700, "COORD_Y": 1186781.177700, "NOMBRE": "Corregimiento de San Cristóbal" }, "geometry": { "type": "Point", "coordinates": [ -75.641839, 6.283123 ] } },
{ "type": "Feature", "properties": { "OBJECTID": 10, "TIPO": "Centro de Acopio", "COORD_X": 827788.656500, "COORD_Y": 1180170.983600, "NOMBRE": "Corregimiento de Altavista" }, "geometry": { "type": "Point", "coordinates": [ -75.633454, 6.223365 ] } },
{ "type": "Feature", "properties": { "OBJECTID": 11, "TIPO": "Centro de Acopio", "COORD_X": 825205.088200, "COORD_Y": 1176356.748000, "NOMBRE": "Compartamos" }, "geometry": { "type": "Point", "coordinates": [ -75.656788, 6.188879 ] } }
]
}
